UNIQUE_CODE,STATE,PARLIAMENTARY_CONSTITUENCY_CODE,PARLIAMENTARY_NAME,LATITUDE,LONGITUDE,TOTAL_ELECTORS,Malay,Chinese,Indian,Orang Asli,Bumiputera Sabah,Bumiputera Sarawak,Others
P.001,Perlis,P.001,Padang Besar,6.65906,100.319229,46096,86.61,8.45,0.88,0.02,0.3,0.68,3.06
P.002,Perlis,P.002,Kangar,6.43994,100.192909,55938,81.71,15.23,1.68,0,0.07,0.09,1.22
P.003,Perlis,P.003,Arau,6.429708,100.269844,48187,87.66,7.66,1.65,0.01,0.09,0.07,2.86
P.004,Kedah,P.004,Langkawi,6.35,99.800003,42697,90.37,6.51,2.4,0,0.19,0.17,0.36
P.005,Kedah,P.005,Jerlun,6.24003,100.256821,54132,91.23,6.89,0.1,0,0.03,0.02,1.73
P.006,Kedah,P.006,Kubang Pasu,6.3356376,100.3723218,73881,86.49,8.53,3.46,0.01,0.18,0.18,1.15
P.007,Kedah,P.007,Padang Terap,6.2566513,100.6645805,46644,92.14,1.27,0.17,0,0.03,0.03,6.36
P.008,Kedah,P.008,Pokok Sena,6.1730525,100.5203915,86892,81.45,15.45,2.45,0,0.06,0.12,0.47
P.009,Kedah,P.009,Alor Setar,6.1231908,100.3683962,80272,63.58,31.72,4.21,0,0.05,0.1,0.34
P.010,Kedah,P.010,Kuala Kedah,6.1072177,100.2934899,97753,78.27,20.25,1.12,0,0.03,0.03,0.3
P.011,Kedah,P.011,Pendang,5.9720841,100.5501852,74867,88.76,5.07,0.54,0.01,0.03,0.03,5.56
P.012,Kedah,P.012,Jerai,5.787128,100.4347358,79976,80.19,13.57,5.91,0,0.02,0.04,0.27
P.013,Kedah,P.013,Sik,5.9239011,100.8231021,50385,92.98,1.46,0.17,0.01,0.05,0.03,5.3
P.014,Kedah,P.014,Merbok,5.7226681,100.4136266,87782,68.58,15.06,15.34,0.01,0.16,0.39,0.46
P.015,Kedah,P.015,Sungai Petani,5.6435195,100.4869513,112577,60.71,26.83,11.95,0.01,0.04,0.05,0.41
P.016,Kedah,P.016,Baling,5.5507199,100.797587,107213,88.7,4.38,5.14,0.11,0.05,0.04,1.58
P.017,Kedah,P.017,Padang Serai,5.5126654,100.554626,84834,59.05,19.79,20.74,0,0.04,0.04,0.34
P.018,Kedah,P.018,Kulim-Bandar Baharu,5.2099939,100.6118843,66587,69.18,17.65,12.87,0,0.06,0.07,0.17
P.019,Kelantan,P.019,Tumpat,6.2002519,102.1706651,110924,92.92,3.13,0.15,0,0.02,0.05,3.73
P.020,Kelantan,P.020,Pengkalan Chepa,6.172658,102.293098,75384,97.93,1.49,0.11,0.01,0.08,0.11,0.27
P.021,Kelantan,P.021,Kota Bharu,6.12584,102.2399785,88708,84.46,14.21,0.78,0,0.04,0.05,0.46
P.022,Kelantan,P.022,Pasir Mas,6.0080942,102.0925134,71222,97.59,1.99,0.06,0,0.03,0.04,0.29
P.023,Kelantan,P.023,Rantau Panjang,6.0181186,101.9728195,66115,97,2.06,0.07,0,0.02,0.04,0.81
P.024,Kelantan,P.024,Kubang Kerian,6.0940366,102.2845137,82018,97.98,1.68,0.14,0,0.03,0.04,0.13
P.025,Kelantan,P.025,Bachok,6.0616322,102.4008505,92606,98.46,1.08,0.04,0,0.02,0.03,0.37
P.026,Kelantan,P.026,Ketereh,5.9588765,102.251282,65238,96.66,1.88,0.08,0.06,0.26,0.59,0.47
P.027,Kelantan,P.027,Tanah Merah,5.7663046,102.0341478,73172,94.71,3.92,0.59,0,0.04,0.06,0.68
P.028,Kelantan,P.028,Pasir Puteh,5.8346168,102.3829644,85411,98.17,0.96,0.05,0,0.03,0.04,0.75
P.029,Kelantan,P.029,Machang,5.7641131,102.214217,68387,96.45,3.13,0.18,0,0.04,0.05,0.15
P.030,Kelantan,P.030,Jeli,5.6955226,101.8449367,47470,98.23,0.19,0.11,0.56,0.29,0.35,0.27
P.031,Kelantan,P.031,Kuala Krai,5.5311582,102.1993666,70348,94.55,3.96,1.17,0.01,0.04,0.04,0.23
P.032,Kelantan,P.032,Gua Musang,4.8792724,101.9652332,52524,82.43,5.58,0.51,11.1,0.06,0.05,0.27
P.033,Terengganu,P.033,Besut,5.5833333,102.5,86627,98.1,1.41,0.09,0.01,0.06,0.07,0.26
P.034,Terengganu,P.034,Setiu,5.5500806,102.7355111,86247,99.41,0.33,0.03,0,0.05,0.03,0.15
P.035,Terengganu,P.035,Kuala Nerus,5.3333333,103,83663,98.7,0.95,0.08,0,0.06,0.06,0.15
P.036,Terengganu,P.036,Kuala Terengganu,5.3296461,103.1383265,103611,90.01,9.21,0.52,0,0.05,0.05,0.16
P.037,Terengganu,P.037,Marang,5.1666667,103.1666667,104898,97.69,2.01,0.08,0,0.04,0.05,0.13
P.038,Terengganu,P.038,Hulu Terengganu,4.910689,102.7650701,73487,99.08,0.47,0.04,0.21,0.04,0.04,0.12
P.039,Terengganu,P.039,Dungun,4.7643972,103.4184463,90506,96.01,3.41,0.18,0,0.07,0.06,0.27
P.040,Terengganu,P.040,Kemaman,4.239674,103.1914299,107593,93.42,5.38,0.62,0.19,0.06,0.09,0.24
P.041,Pulau Pinang,P.041,Kepala Batas,5.5143846,100.4362369,60523,78.56,17.02,4.17,0,0.06,0.06,0.13
P.042,Pulau Pinang,P.042,Tasek Gelugor,5.4821102,100.4980002,60850,78.23,14.71,6.59,0,0.12,0.15,0.2
P.043,Pulau Pinang,P.043,Bagan,5.4067343,100.3696461,71583,13.35,71.27,15.03,0,0.05,0.03,0.27
P.044,Pulau Pinang,P.044,Permatang Pauh,5.410228,100.413226,81789,71.94,21.41,6.16,0,0.07,0.06,0.36
P.045,Pulau Pinang,P.045,Bukit Mertajam,5.3642519,100.4609867,88998,19.34,70.36,9.95,0,0.06,0.03,0.26
P.046,Pulau Pinang,P.046,Batu Kawan,5.2625962,100.4304555,65394,20.94,55.87,22.76,0,0.08,0.06,0.29
P.047,Pulau Pinang,P.047,Nibong Tebal,5.1700963,100.4785191,73383,47.7,35.03,16.95,0.01,0.07,0.04,0.2
P.048,Pulau Pinang,P.048,Bukit Bendera,5.4245765,100.2689827,75069,14.65,72.83,11.29,0,0.09,0.09,1.05
P.049,Pulau Pinang,P.049,Tanjong,5.4647757,100.284463,49586,5.89,84.17,9.55,0,0.04,0.03,0.32
P.050,Pulau Pinang,P.050,Jelutong,5.3873462,100.3145585,76991,22.62,65.21,11.67,0,0.06,0.04,0.4
P.051,Pulau Pinang,P.051,Bukit Gelugor,5.3794182,100.3047639,91595,14.33,73.86,11.27,0,0.06,0.04,0.44
P.052,Pulau Pinang,P.052,Bayan Baru,5.3248811,100.285231,90780,39.6,48.51,11.02,0,0.19,0.18,0.5
P.053,Pulau Pinang,P.053,Balik Pulau,5.3506953,100.2348979,59086,64.9,30.16,4.43,0,0.15,0.1,0.26
P.054,Perak,P.054,Gerik,5.4306632,101.1296386,35903,69.1,14.05,3.29,9.07,0.55,0.84,3.1
P.055,Perak,P.055,Lenggong,5.1094869,100.9678905,29752,83.46,12.69,1.44,2.13,0.07,0.05,0.16
P.056,Perak,P.056,Larut,4.853766,100.7436053,49453,89.69,4.34,5.64,0,0.05,0.04,0.24
P.057,Perak,P.057,Parit Buntar,5.1300016,100.4893897,51860,69.35,25.7,4.76,0,0.05,0.02,0.12
P.058,Perak,P.058,Bagan Serai,5.0284508,100.5273516,59293,77.89,12.89,9.01,0,0.04,0.04,0.13
P.059,Perak,P.059,Bukit Gantang,4.7833333,100.76667,69873,72.39,18.9,8.41,0.01,0.04,0.05,0.2
P.060,Perak,P.060,Taiping,4.8546772,100.7438831,90729,38.81,46.41,13.45,0.03,0.23,0.62,0.45
P.061,Perak,P.061,Padang Rengas,4.7777852,100.8576433,30996,77.75,15.42,6.65,0,0.02,0.04,0.12
P.062,Perak,P.062,Sungai Siput,4.8188086,101.071298,55002,34.28,36.28,20.89,8.3,0.05,0.04,0.16
P.063,Perak,P.063,Tambun,4.6112263,101.1400876,107763,66.32,20.22,11.42,1.08,0.18,0.33,0.45
P.064,Perak,P.064,Ipoh Timor,4.5763317,101.1308762,91486,21,72.01,6.4,0.02,0.08,0.09,0.4
P.065,Perak,P.065,Ipoh Barat,4.5954401,101.0622002,84874,11.83,63.16,24.42,0.03,0.04,0.06,0.46
P.066,Perak,P.066,Batu Gajah,4.4598846,101.0492993,81399,9.95,75,14.61,0.05,0.04,0.05,0.3
P.067,Perak,P.067,Kuala Kangsar,4.7720713,100.9408776,36954,70.36,21.6,6.61,1.05,0.07,0.06,0.25
P.068,Perak,P.068,Beruas,4.5002829,100.7824056,79794,26.33,59.25,14.06,0.01,0.09,0.07,0.19
P.069,Perak,P.069,Parit,4.4768608,100.9093896,35910,93,2.24,2.54,1.86,0.07,0.08,0.21
P.070,Perak,P.070,Kampar,4.30066,101.1614462,69436,33.39,55.37,9.16,1.74,0.05,0.05,0.24
P.071,Perak,P.071,Gopeng,4.476786,101.168079,99167,42.37,46.01,9.12,2.09,0.07,0.07,0.27
P.072,Perak,P.072,Tapah,4.1990915,101.2599231,47128,46.24,25.83,14.29,12.96,0.08,0.1,0.5
P.073,Perak,P.073,Pasir Salak,4.1731723,100.945408,54671,80.65,12.86,3.49,2.75,0.04,0.05,0.16
P.074,Perak,P.074,Lumut,4.2246469,100.6211525,67157,72.05,14.96,11.44,0.03,0.56,0.66,0.3
P.075,Perak,P.075,Bagan Datuk,3.9166667,100.9166667,47309,58.99,17.72,21.63,0.02,0.36,0.15,1.13
P.076,Perak,P.076,Teluk Intan,4.023176,101.026184,66487,40.67,40.09,18.64,0.21,0.02,0.04,0.33
P.077,Perak,P.077,Tanjong Malim,3.6900079,101.5234848,68468,55.56,25.56,13.02,5.31,0.06,0.07,0.42
P.078,Pahang,P.078,Cameron Highlands,4.4781546,101.4833091,32048,33.5,29.48,14.91,21.56,0.12,0.06,0.37
P.079,Pahang,P.079,Lipis,4.3242506,101.9085845,35294,78.02,15.64,5.23,0.77,0.05,0.07,0.22
P.080,Pahang,P.080,Raub,3.7950465,101.8560075,57723,52.07,38.11,6.15,3.25,0.05,0.06,0.31
P.081,Pahang,P.081,Jerantut,4.2834137,102.5575232,63609,81.76,13.02,2.63,2.24,0.06,0.05,0.24
P.082,Pahang,P.082,Indera Mahkota,3.829399,103.2942076,77208,66.62,26.89,5.68,0.04,0.27,0.16,0.34
P.083,Pahang,P.083,Kuantan,3.7985637,103.32199,62696,66.39,29.58,3.34,0.17,0.11,0.09,0.32
P.084,Pahang,P.084,Paya Besar,3.7861754,103.233338,55135,83.36,12.86,1.94,1.4,0.06,0.07,0.31
P.085,Pahang,P.085,Pekan,3.4895509,103.390396,88899,87.79,2.01,0.82,7.86,0.23,0.48,0.81
P.086,Pahang,P.086,Maran,3.601443,102.6410048,41036,90.16,6.16,1.45,1.83,0.05,0.05,0.3
P.087,Pahang,P.087,Kuala Krau,3.709684,102.367585,47264,89.86,2.77,2.29,4.78,0.04,0.05,0.21
P.088,Pahang,P.088,Temerloh,3.6124468,102.2566818,75081,66.47,22.52,8.11,1.25,0.29,0.61,0.75
P.089,Pahang,P.089,Bentong,3.3624708,102.0172675,67359,46.5,41.69,9.16,2.08,0.09,0.17,0.31
P.090,Pahang,P.090,Bera,3.2366738,102.5417723,58711,61.89,29.17,3.71,4.59,0.2,0.17,0.27
P.091,Pahang,P.091,Rompin,2.8245772,103.0993556,61918,87.71,2.31,1.03,8.45,0.08,0.06,0.36
P.092,Selangor,P.092,Sabak Bernam,3.6871153,101.0580588,40863,83.05,11.69,4.95,0.01,0.05,0.07,0.18
P.093,Selangor,P.093,Sungai Besar,3.6777145,100.9880263,48739,68.71,28.77,2.02,0.01,0.11,0.05,0.33
P.094,Selangor,P.094,Hulu Selangor,3.5367441,101.5949347,100990,60.39,20.8,16.22,1.64,0.17,0.16,0.62
P.095,Selangor,P.095,Tanjong Karang,3.4248609,101.1765284,47198,74.67,15.96,8.94,0,0.05,0.03,0.35
P.096,Selangor,P.096,Kuala Selangor,3.3621022,101.3455503,69397,65.43,12.92,21.09,0.01,0.1,0.08,0.37
P.097,Selangor,P.097,Selayang,3.2537121,101.6539012,116176,51.79,28.72,17.7,0.22,0.21,0.18,1.18
P.098,Selangor,P.098,Gombak,3.3,101.7,141112,75.8,10.67,10.77,0.39,0.15,0.14,2.08
P.099,Selangor,P.099,Ampang,3.1505141,101.7600712,91737,54.79,34.66,8.71,0.01,0.2,0.13,1.5
P.100,Selangor,P.100,Pandan,3.1359876,101.7204333,101319,45.58,45.95,7.12,0.01,0.34,0.15,0.85
P.101,Selangor,P.101,Hulu Langat,3.083333,101.833333,102363,64.98,22.08,10.42,0.75,0.32,0.27,1.18
P.102,Selangor,P.102,Bangi,2.9040475,101.7863029,178790,48.48,38.95,11.12,0.01,0.28,0.22,0.94
P.103,Selangor,P.103,Puchong,3.0327,101.6188,96437,36.86,51.98,10.03,0.15,0.32,0.17,0.49
P.104,Selangor,P.104,Subang,3.0342324,101.6170345,146422,26.62,56.49,15.15,0.01,0.41,0.27,1.05
P.105,Selangor,P.105,Petaling Jaya,3.0988792,101.6454202,140920,46.57,32.03,19.54,0.01,0.31,0.22,1.32
P.106,Selangor,P.106,Damansara,3.1378819,101.5966801,164322,19.67,69.42,9.42,0.19,0.18,0.12,1
P.107,Selangor,P.107,Sungai Buloh,3.2061782,101.5800355,90707,65.33,21.64,10.72,0.04,0.46,0.47,1.34
P.108,Selangor,P.108,Shah Alam,3.0739429,101.5185278,107316,75.26,10.83,12.78,0.07,0.3,0.23,0.53
P.109,Selangor,P.109,Kapar,3.1377492,101.3732079,124983,70.72,14.78,13.55,0.02,0.25,0.09,0.59
P.110,Selangor,P.110,Klang,3.0448394,101.4447363,149348,26.44,55.26,17.09,0.05,0.37,0.13,0.66
P.111,Selangor,P.111,Kota Raja,3.0117686,101.5622842,149021,43.15,27.66,27.68,0.01,0.59,0.15,0.76
P.112,Selangor,P.112,Kuala Langat,2.8365619,101.4961821,102406,57.17,24.03,16.26,1.72,0.18,0.13,0.51
P.113,Selangor,P.113,Sepang,2.8008619,101.7094012,104508,62.33,20.33,14.21,2.05,0.31,0.23,0.54
P.114,Wilayah Persekutuan Kuala Lumpur,P.114,Kepong,3.2026423,101.6372464,72696,4.55,88.76,6.03,0,0.3,0.05,0.31
P.115,Wilayah Persekutuan Kuala Lumpur,P.115,Batu,3.2018234,101.6710223,76328,42.52,38.28,17.46,0.02,0.32,0.44,0.96
P.116,Wilayah Persekutuan Kuala Lumpur,P.116,Wangsa Maju,3.2057781,101.7318615,88482,59.82,29.57,8.18,0.04,0.45,0.59,1.35
P.117,Wilayah Persekutuan Kuala Lumpur,P.117,Segambut,3.1864418,101.6641964,77956,27.53,58.93,11.77,0.01,0.14,0.12,1.5
P.118,Wilayah Persekutuan Kuala Lumpur,P.118,Setiawangsa,3.1757346,101.7359468,72136,61.09,25.87,10.38,0.04,0.76,1.08,0.78
P.119,Wilayah Persekutuan Kuala Lumpur,P.119,Titiwangsa,3.1734326,101.6952622,61598,70.49,17.3,9.42,0.01,0.5,0.37,1.91
P.120,Wilayah Persekutuan Kuala Lumpur,P.120,Bukit Bintang,3.1460953,101.7114762,69526,12.53,75.12,10.95,0.02,0.37,0.28,0.73
P.121,Wilayah Persekutuan Kuala Lumpur,P.121,Lembah Pantai,3.101597,101.6688966,80346,62.12,18.91,16.24,0.02,0.68,0.48,1.55
P.122,Wilayah Persekutuan Kuala Lumpur,P.122,Seputeh,3.1136874,101.68142,86256,9.04,82.03,7.87,0,0.23,0.08,0.75
P.123,Wilayah Persekutuan Kuala Lumpur,P.123,Cheras,3.0991919,101.7374229,78819,9.68,82.93,6.73,0.01,0.22,0.06,0.37
P.124,Wilayah Persekutuan Kuala Lumpur,P.124,Bandar Tun Razak,3.089635,101.7124347,83650,61.08,29.1,8.27,0.01,0.42,0.53,0.59
P.125,Wilayah Persekutuan Putrajaya,P.125,Putrajaya,2.9384381,101.69223,27306,94.17,0.89,3.18,0.04,0.85,0.42,0.45
P.126,Negeri Sembilan,P.126,Jelebu,3.0366264,102.1179206,48522,65.01,24.13,5.69,4.58,0.25,0.15,0.19
P.127,Negeri Sembilan,P.127,Jempol,2.8502724,102.5081957,72122,63.35,23.24,12.31,0.77,0.06,0.05,0.22
P.128,Negeri Sembilan,P.128,Seremban,2.723099,101.9400601,110168,48.39,36.75,13.25,0.7,0.19,0.13,0.59
P.129,Negeri Sembilan,P.129,Kuala Pilah,2.7430758,102.2154881,49801,77.01,15.84,4.86,1.89,0.07,0.1,0.23
P.130,Negeri Sembilan,P.130,Rasah,2.7188285,101.9404831,102838,29.65,47.79,20.95,0.41,0.18,0.21,0.81
P.131,Negeri Sembilan,P.131,Rembau,2.5578923,102.1081637,88365,73.32,10.31,15.4,0.39,0.12,0.13,0.33
P.132,Negeri Sembilan,P.132,Port Dickson,2.5262491,101.8106156,75212,42.72,33.11,21.97,0.19,0.63,0.93,0.45
P.133,Negeri Sembilan,P.133,Tampin,2.4721537,102.2323504,60765,62.83,23.55,11.82,0.14,0.38,0.99,0.29
P.134,Melaka,P.134,Masjid Tanah,2.3522253,102.1089793,51441,83.17,11.96,3.71,0.37,0.09,0.12,0.58
P.135,Melaka,P.135,Alor Gajah,2.3834528,102.2107805,70364,60.84,25.29,12.87,0.6,0.1,0.08,0.22
P.136,Melaka,P.136,Tangga Batu,2.2601,102.1523,83213,70.98,22.08,3.53,0.08,1.03,1.64,0.66
P.137,Melaka,P.137,Hang Tuah Jaya,2.2714538,102.3079538,89364,62.39,31.11,5.68,0,0.17,0.13,0.52
P.138,Melaka,P.138,Kota Melaka,2.1994594,102.2602305,126848,37.41,57.11,4.01,0.01,0.11,0.1,1.25
P.139,Melaka,P.139,Jasin,2.3058097,102.422339,73432,73.5,16.17,9.77,0.12,0.06,0.07,0.31
P.140,Johor,P.140,Segamat,2.4922852,102.8450367,55350,46.19,42.77,10.09,0.1,0.3,0.32,0.23
P.141,Johor,P.141,Sekijang,2.527104,102.9392235,45596,59.24,36.15,4,0.18,0.03,0.05,0.35
P.142,Johor,P.142,Labis,2.3834121,103.0199327,40356,37.98,44.94,14.68,2.04,0.07,0.05,0.24
P.143,Johor,P.143,Pagoh,2.1494751,102.7714544,51512,65.96,29.76,3.72,0.34,0.04,0.04,0.14
P.144,Johor,P.144,Ledang,2.25,102.5833333,77474,55.76,39.03,4.57,0.36,0.06,0.04,0.18
P.145,Johor,P.145,Bakri,2.0424892,102.6539628,73883,44.23,53.14,2.15,0,0.08,0.07,0.33
P.146,Johor,P.146,Muar,2.0425046,102.5658852,50843,66.72,31.47,1.33,0.01,0.08,0.07,0.32
P.147,Johor,P.147,Parit Sulong,1.9759124,102.8830335,59609,78.51,20.66,0.48,0.03,0.03,0.05,0.24
P.148,Johor,P.148,Ayer Hitam,1.9181728,103.1795162,46157,57.68,37.97,4.01,0,0.02,0.04,0.28
P.149,Johor,P.149,Sri Gading,1.8541606,103.0304386,52119,65,33.17,1.46,0.01,0.07,0.04,0.25
P.150,Johor,P.150,Batu Pahat,1.933333,103,98543,54.64,43.49,1.29,0.1,0.07,0.06,0.35
P.151,Johor,P.151,Simpang Renggam,1.826736,103.308715,43998,59.61,30.8,8.84,0.02,0.12,0.1,0.51
P.152,Johor,P.152,Kluang,2.0323472,103.3190766,96915,41.63,47.49,9.38,0.04,0.3,0.69,0.47
P.153,Johor,P.153,Sembrong,1.9677552,103.3801406,44137,60.44,29.15,8.66,1.31,0.04,0.04,0.36
P.154,Johor,P.154,Mersing,2.4298532,103.835494,48176,81.45,14.29,1.26,1.69,0.44,0.6,0.27
P.155,Johor,P.155,Tenggara,1.8637505,103.6219072,44749,74.68,16.13,6.58,0.56,0.4,1.13,0.52
P.156,Johor,P.156,Kota Tinggi,1.816667,103.966667,46677,88.36,9.27,1.85,0.07,0.06,0.09,0.3
P.157,Johor,P.157,Pengerang,1.3944226,104.2154903,40479,89.61,8.87,0.77,0.21,0.17,0.18,0.19
P.158,Johor,P.158,Tebrau,1.5354668,103.7572379,123033,47.19,39.36,11.54,0.08,0.27,0.67,0.89
P.159,Johor,P.159,Pasir Gudang,1.4953437,103.9207048,124172,48.89,37.03,10.45,0.08,1.34,1.41,0.8
P.160,Johor,P.160,Johor Bahru,1.503555,103.7495586,101409,52.64,41.09,5.15,0.02,0.18,0.24,0.68
P.161,Johor,P.161,Pulai,1.5542,103.5948,106268,49.06,39.2,10.28,0.17,0.3,0.36,0.63
P.162,Johor,P.162,Iskandar Puteri,1.4522711,103.6144729,138299,36.65,49.79,12.46,0.22,0.2,0.32,0.36
P.163,Johor,P.163,Kulai,1.6666667,103.6,99147,34.96,54.04,10.24,0.01,0.21,0.18,0.36
P.164,Johor,P.164,Pontian,1.5,103.5,55570,68.24,30.1,1.03,0.07,0.05,0.06,0.45
P.165,Johor,P.165,Tanjung Piai,1.2679048,103.5086586,53528,56.8,41.64,1.01,0.01,0.08,0.08,0.38
P.166,Wilayah Persekutuan Labuan,P.166,Labuan,5.3168336,115.2198613,28356,42.07,20.67,1.36,0.01,31.16,1.7,3.03
P.167,Sabah,P.167,Kudat,7.2316455,117.1711562,52251,6.39,9.4,0.15,0.01,72.53,0.3,11.22
P.168,Sabah,P.168,Kota Marudu,6.4465546,116.828293,47007,4.04,2.19,0.09,0.01,91.91,0.26,1.5
P.169,Sabah,P.169,Kota Belud,6.3347195,116.4835961,57919,4.47,1.45,0.16,0,91.78,0.24,1.9
P.170,Sabah,P.170,Tuaran,6.0659213,116.3198111,54400,5.16,5.35,0.23,0,87.12,0.38,1.76
P.171,Sabah,P.171,Sepanggar,6.0679124,116.0743453,62415,16.21,19.6,0.54,0.02,57.35,0.79,5.49
P.172,Sabah,P.172,Kota Kinabalu,5.9780066,116.0728988,56220,5.37,63.81,0.93,0,26.07,0.43,3.39
P.173,Sabah,P.173,Putatan,5.8814478,116.0656182,41312,22.53,16.09,0.73,0.02,53.7,1.07,5.86
P.174,Sabah,P.174,Penampang,5.8626228,116.1138146,53131,5.3,33.51,0.74,0,58.11,0.69,1.65
P.175,Sabah,P.175,Papar,5.7461495,116.0449789,43586,10.27,7.79,0.38,0,77.55,0.61,3.4
P.176,Sabah,P.176,Kimanis,5.6150677,115.8883036,29618,11.36,3.65,0.16,0,81.82,0.54,2.47
P.177,Sabah,P.177,Beaufort,5.2911244,115.672474,33342,8.32,6.84,0.33,0.01,81.85,0.63,2.02
P.178,Sabah,P.178,Sipitang,4.634452,115.6861012,31882,9.71,4.05,0.18,0,82.36,1.69,2.01
P.179,Sabah,P.179,Ranau,5.8980313,116.6696079,43706,3.07,1.78,0.07,0.01,94.03,0.33,0.71
P.180,Sabah,P.180,Keningau,5.2179477,116.2463149,51177,5.7,8.92,0.2,0.01,82.26,0.65,2.26
P.181,Sabah,P.181,Tenom,4.9104025,115.9050951,29182,7.09,10.49,0.12,0,80.13,0.49,1.68
P.182,Sabah,P.182,Pensiangan,4.5384978,116.3117345,31377,2.69,1.27,0.08,0,94.83,0.28,0.85
P.183,Sabah,P.183,Beluran,6.1366933,117.3629228,28509,8.64,0.99,0.16,0,82.33,1.25,6.63
P.184,Sabah,P.184,Libaran,6.1154317,118.0218224,47914,27.17,17.17,0.26,0.01,40.7,0.93,13.76
P.185,Sabah,P.185,Batu Sapi,5.8037817,118.0445333,32574,17.48,30.86,0.31,0.03,40.83,0.87,9.62
P.186,Sabah,P.186,Sandakan,5.8391274,118.1158598,39777,13.91,50.71,0.62,0.01,27.34,0.63,6.78
P.187,Sabah,P.187,Kinabatangan,5.332648,118.1212915,28730,15.87,0.73,0.12,0.01,76.72,0.97,5.58
P.188,Sabah,P.188,Silam,4.9566648,118.164739,60942,25.71,11.05,0.44,0.01,50.52,1.11,11.16
P.189,Sabah,P.189,Semporna,4.4790765,118.4297732,48248,9.55,1.76,0.11,0.02,85.62,0.37,2.57
P.190,Sabah,P.190,Tawau,4.2435206,117.885331,59919,34.8,34.61,0.29,0.01,18.05,0.98,11.26
P.191,Sabah,P.191,Kalabakan,4.4808936,117.4071326,52199,47.97,8.97,0.35,0.02,20.05,1.97,20.67
P.192,Sarawak,P.192,Mas Gading,1.4166866,110.1561153,29617,5.16,17.76,0.15,0.02,0.24,76.46,0.21
P.193,Sarawak,P.193,Santubong,1.7368773,110.3325372,45628,80.27,7.73,0.03,0.01,0.1,11.76,0.1
P.194,Sarawak,P.194,Petra Jaya,1.5715783,110.351203,57925,73.24,13.27,0.55,0.01,0.22,12.42,0.29
P.195,Sarawak,P.195,Bandar Kuching,1.6346489,110.3422861,81856,4.03,88.71,0.67,0,0.17,6.18,0.24
P.196,Sarawak,P.196,Stampin,1.5078284,110.3516797,66240,16.15,64.21,0.69,0.02,0.23,18.47,0.23
P.197,Sarawak,P.197,Kota Samarahan,1.4596157,110.4954562,46300,61.79,11.3,0.24,0.06,0.58,25.76,0.27
P.198,Sarawak,P.198,Puncak Borneo,1.3350614,110.3048801,46180,4.78,25.96,0.19,0.12,0.25,68.43,0.27
P.199,Sarawak,P.199,Serian,1.1136159,110.6182211,37629,7.56,10.03,0.12,0.57,0.19,81.35,0.18
P.200,Sarawak,P.200,Batang Sadong,1.418612,110.7036751,23213,70.11,5.11,0.04,0.05,0.13,24.33,0.23
P.201,Sarawak,P.201,Batang Lupar,2.5023855,112.9547283,29811,67.08,2.86,0.02,0.02,0.09,29.85,0.08
P.202,Sarawak,P.202,Sri Aman,1.2097123,111.2866092,33016,10.32,16.59,0.04,0.11,0.19,72.58,0.17
P.203,Sarawak,P.203,Lubok Antu,1.2860121,111.8674654,20801,1.5,7.79,0.02,0.01,0.21,90.32,0.15
P.204,Sarawak,P.204,Betong,1.4797292,111.474787,29145,38,6.57,0.06,0.02,0.13,55.08,0.14
P.205,Sarawak,P.205,Saratok,1.7668371,111.4087566,30517,36,6.41,0.03,0.01,0.09,57.34,0.12
P.206,Sarawak,P.206,Tanjong Manis,2.129,111.2907,21899,25.61,4.83,0.03,0.02,0.21,68.85,0.45
P.207,Sarawak,P.207,Igan,2.8212516,111.7063114,19592,6.84,3.69,0.03,0.01,0.31,88.93,0.19
P.208,Sarawak,P.208,Sarikei,2.1294846,111.5230586,39561,4.56,62.78,0.03,0.01,0.16,32.29,0.17
P.209,Sarawak,P.209,Julau,1.8198041,111.8990022,25380,0.63,4.53,0.03,0.01,0.11,94.58,0.11
P.210,Sarawak,P.210,Kanowit,1.9353301,112.2098575,21022,1.56,11.77,0.02,0.03,0.1,86.39,0.13
P.211,Sarawak,P.211,Lanang,2.2397256,111.8478428,61973,3.44,68.68,0.05,0.02,0.25,27.44,0.12
P.212,Sarawak,P.212,Sibu,2.2906434,111.8256158,74149,11.12,62.74,0.1,0.04,0.35,25.49,0.16
P.213,Sarawak,P.213,Mukah,2.8118528,112.291206,30608,3.23,9.15,0.04,0.01,0.36,86.94,0.27
P.214,Sarawak,P.214,Selangau,2.4955896,112.3524958,30026,1.11,3.3,0.01,0.01,0.12,95.07,0.38
P.215,Sarawak,P.215,Kapit,2.0139027,112.9356766,30658,2.71,9.51,0.07,0.02,0.21,87.34,0.14
P.216,Sarawak,P.216,Hulu Rajang,2.2907,114.849,27520,0.96,1.56,0.03,0.23,0.25,96.74,0.23
P.217,Sarawak,P.217,Bintulu,3.1874261,113.0472803,65049,10.57,28.75,0.09,0.01,0.37,60.03,0.18
P.218,Sarawak,P.218,Sibuti,4.5126609,114.0146618,31868,23.85,21.54,0.11,0.01,0.39,53.7,0.4
P.219,Sarawak,P.219,Miri,4.392739,113.9880255,80386,15.28,55.32,0.29,0.01,0.44,28.35,0.31
P.220,Sarawak,P.220,Baram,3.2022972,115.3967428,35685,4.79,7.86,0.04,0.24,0.25,86.57,0.25
P.221,Sarawak,P.221,Limbang,4.3519985,115.0602417,26409,28.18,17.98,0.08,0.05,7.62,45.82,0.27
P.222,Sarawak,P.222,Lawas,4.4551211,115.427188,21297,40.08,9.25,0.09,0.02,1.73,48.42,0.41
